[
    {  
       
       "name":"chevrolet chevelle malibu",
       "description":"Get The Most For The Money at Capitol Chevy in Austin. Wide Selection of New and Used Vehicles. Stop by Today and Find Your Perfect Vehicle! Huge Pre-Owned Inventory. Models: Trax, Malibu, Sonic, Silverado, Tahoe, Colorado, Equinox, Suburban",
       "hours":"7am to 6pm",
       "address":"6200 Interstate Highway 35 Austin TX 78745 US",
       "lat": 30.194558,
      "lng": -97.768775
     
    },
    {
        "name": "used cars babalu",
        "description":"Get The Most For The Money at Capitol Chevy in Austin. Wide Selection of New and Used Vehicles. Stop by Today and Find Your Perfect Vehicle! Huge Pre-Owned Inventory. Models: Trax, Malibu, Sonic, Silverado, Tahoe, Colorado, Equinox, Suburban",
        "hours":"7am to 6pm",
        "address":"501 E Koenig Ln, Austin, TX 78751",
        "lat": 30.194558,
        "lng": -97.768775
      
     },
     {
      "name": "used cars babalu",
      "description":"Get The Most For The Money at Capitol Chevy in Austin. Wide Selection of New and Used Vehicles. Stop by Today and Find Your Perfect Vehicle! Huge Pre-Owned Inventory. Models: Trax, Malibu, Sonic, Silverado, Tahoe, Colorado, Equinox, Suburban",
      "hours":"7am to 6pm",
      "address":"11400 Research Blvd Austin TX 78759",
      "lat": 30.410315, 
      "lng": -97.746279
    
   },
   {
    "name": "used cars babalu",
    "description":"Get The Most For The Money at Capitol Chevy in Austin. Wide Selection of New and Used Vehicles. Stop by Today and Find Your Perfect Vehicle! Huge Pre-Owned Inventory. Models: Trax, Malibu, Sonic, Silverado, Tahoe, Colorado, Equinox, Suburban",
    "hours":"7am to 6pm",
    "address":"501 E Koenig Ln, Austin, TX 78751",
    "lat": 30.194558,
    "lng": -97.768775
  
 },
 {
  "name": "used cars babalu",
  "description":"Get The Most For The Money at Capitol Chevy in Austin. Wide Selection of New and Used Vehicles. Stop by Today and Find Your Perfect Vehicle! Huge Pre-Owned Inventory. Models: Trax, Malibu, Sonic, Silverado, Tahoe, Colorado, Equinox, Suburban",
  "hours":"7am to 6pm",
  "address":"11400 Research Blvd Austin TX 78759",
  "lat": 30.194558,
  "lng": -97.768775

},{
  "name": "used cars babalu",
  "description":"Get The Most For The Money at Capitol Chevy in Austin. Wide Selection of New and Used Vehicles. Stop by Today and Find Your Perfect Vehicle! Huge Pre-Owned Inventory. Models: Trax, Malibu, Sonic, Silverado, Tahoe, Colorado, Equinox, Suburban",
  "hours":"7am to 6pm",
  "address":"501 E Koenig Ln, Austin, TX 78751",
  "lat": 30.194558,
  "lng": -97.768775

}
    
]